{
  "type": "FeatureCollection",
  "features": [
    {
      "type": "Feature",
      "geometry": {
        "type": "Point",
        "coordinates": [
          -73.9261,
          40.8284
        ]
      },
      "properties": {
        "Prop_ID": "X030",
        "Name": "Macombs Dam",
        "Size": "0.25 miles",
        "RunningTracks_Type": "Mondo",
        "Location": "161st and Deegan (the south side of the Macombs Dam Bridge)",
        "lat": "40.8284",
        "lon": "-73.9261"
      }
    },
    {
      "type": "Feature",
      "geometry": {
        "type": "Point",
        "coordinates": [
          -73.823,
          40.8491
        ]
      },
      "properties": {
        "Prop_ID": "X039",
        "Name": "Pelham Bay Park",
        "Size": "0.25 miles",
        "RunningTracks_Type": "Mondo",
        "Location": "Bruckner Boulevard & Eastchester Bay",
        "lat": "40.8491",
        "lon": "-73.823"
      }
    },
    {
      "type": "Feature",
      "geometry": {
        "type": "Point",
        "coordinates": [
          -73.8728,
          40.8178
        ]
      },
      "properties": {
        "Prop_ID": "X118",
        "Name": "Hector Aponte Track and Field",
        "Size": "0.25 miles",
        "RunningTracks_Type": "Asphalt",
        "Location": "Lafayette & Colgate avenues",
        "lat": "40.8178",
        "lon": "-73.8728"
      }
    },
    {
      "type": "Feature",
      "geometry": {
        "type": "Point",
        "coordinates": [
          -73.911,
          40.8111
        ]
      },
      "properties": {
        "Prop_ID": "X045",
        "Name": "St. Mary's Park",
        "Size": "0.12 miles",
        "RunningTracks_Type": "Rubber",
        "Location": "East 145th Street & Jackson Avenue",
        "lat": "40.8111",
        "lon": "-73.911"
      }
    },
    {
      "type": "Feature",
      "geometry": {
        "type": "Point",
        "coordinates": [
          -73.8773,
          40.8776
        ]
      },
      "properties": {
        "Prop_ID": "X104",
        "Name": "Williamsbridge Playground",
        "Size": "0.25 miles",
        "RunningTracks_Type": "Mondo",
        "Location": "Van Cortlandt & Bainbridge",
        "lat": "40.8776",
        "lon": "-73.8773"
      }
    },
    {
      "type": "Feature",
      "geometry": {
        "type": "Point",
        "coordinates": [
          -73.9138,
          40.6627
        ]
      },
      "properties": {
        "Prop_ID": "B008",
        "Name": "Betsy Head Memorial Playground",
        "Size": "0.25 miles",
        "RunningTracks_Type": "Rubber",
        "Location": "Off Strauss Street & Dumont Avenue",
        "lat": "40.6627",
        "lon": "-73.9138"
      }
    },
    {
      "type": "Feature",
      "geometry": {
        "type": "Point",
        "coordinates": [
          -73.9513,
          40.72
        ]
      },
      "properties": {
        "Prop_ID": "B058",
        "Name": "McCarren Park",
        "Size": "0.25 miles",
        "RunningTracks_Type": "Rubber",
        "Location": "Lorimer Street, Union & Driggs Avenue",
        "lat": "40.72",
        "lon": "-73.9513"
      }
    },
    {
      "type": "Feature",
      "geometry": {
        "type": "Point",
        "coordinates": [
          -74.007,
          40.672
        ]
      },
      "properties": {
        "Prop_ID": "B126",
        "Name": "Red Hook Recreation Area",
        "Size": "0.25 miles",
        "RunningTracks_Type": "Rubber",
        "Location": "Bay, Hicks & Henry streets",
        "lat": "40.672",
        "lon": "-74.007"
      }
    },
    {
      "type": "Feature",
      "geometry": {
        "type": "Point",
        "coordinates": [
          -73.9966,
          40.5794
        ]
      },
      "properties": {
        "Prop_ID": "B129",
        "Name": "Leon S. Kaiser Playground",
        "Size": "0.25 miles",
        "RunningTracks_Type": "Mondo",
        "Location": "Bayview, Coney Island Creek",
        "lat": "40.5794",
        "lon": "-73.9966"
      }
    },
    {
      "type": "Feature",
      "geometry": {
        "type": "Point",
        "coordinates": [
          -73.8874,
          40.6593
        ]
      },
      "properties": {
        "Prop_ID": "B214",
        "Name": "JHS 166, Linden Playground",
        "Size": "0.25 miles",
        "RunningTracks_Type": "Mondo",
        "Location": "Linden Boulevard & Stanley Avenue, Vermont to Wyona streets",
        "lat": "40.6593",
        "lon": "-73.8874"
      }
    },
    {
      "type": "Feature",
      "geometry": {
        "type": "Point",
        "coordinates": [
          -73.9441,
          40.6582
        ]
      },
      "properties": {
        "Prop_ID": "B254",
        "Name": "George Wingate HS Playground",
        "Size": "0.2 miles",
        "RunningTracks_Type": "Rubber",
        "Location": "Winthrop Street, Center & South",
        "lat": "40.6582",
        "lon": "-73.9441"
      }
    },
    {
      "type": "Feature",
      "geometry": {
        "type": "Point",
        "coordinates": [
          -73.9871,
          40.7827
        ]
      },
      "properties": {
        "Prop_ID": "M071",
        "Name": "Riverside Park",
        "Size": "0.125 mile",
        "RunningTracks_Type": "Cinder",
        "Location": "West 73 Street & Riverside Park",
        "lat": "40.7827",
        "lon": "-73.9871"
      }
    },
    {
      "type": "Feature",
      "geometry": {
        "type": "Point",
        "coordinates": [
          -73.9254,
          40.7933
        ]
      },
      "properties": {
        "Prop_ID": "M104",
        "Name": "Randall's Island",
        "Size": "0.25 miles",
        "RunningTracks_Type": "All Weather",
        "Location": "Inside Icahn Stadium",
        "lat": "40.7933",
        "lon": "-73.9254"
      }
    },
    {
      "type": "Feature",
      "geometry": {
        "type": "Point",
        "coordinates": [
          -73.9651,
          40.7565
        ]
      },
      "properties": {
        "Prop_ID": "M130",
        "Name": "Constance Baker Motley Recreation Center",
        "Size": "0.04 miles",
        "RunningTracks_Type": "Indoor",
        "Location": "342 East 54 Street",
        "lat": "40.7565",
        "lon": "-73.9651"
      }
    },
    {
      "type": "Feature",
      "geometry": {
        "type": "Point",
        "coordinates": [
          -73.9393,
          40.8128
        ]
      },
      "properties": {
        "Prop_ID": "M131",
        "Name": "Hansborough Recreation Center",
        "Size": "0.03 miles",
        "RunningTracks_Type": "Indoor",
        "Location": "35 West 134 Street",
        "lat": "40.8128",
        "lon": "-73.9393"
      }
    },
    {
      "type": "Feature",
      "geometry": {
        "type": "Point",
        "coordinates": [
          -73.9734,
          40.7217
        ]
      },
      "properties": {
        "Prop_ID": "M144",
        "Name": "East River Park",
        "Size": "0.25 miles",
        "RunningTracks_Type": "Rubber Coated All Weather",
        "Location": "East 6 Street & FDR Drive",
        "lat": "40.7217",
        "lon": "-73.9734"
      }
    },
    {
      "type": "Feature",
      "geometry": {
        "type": "Point",
        "coordinates": [
          -73.9259,
          40.7768
        ]
      },
      "properties": {
        "Prop_ID": "Q004",
        "Name": "Astoria Park",
        "Size": "0.25 miles",
        "RunningTracks_Type": "All Weather",
        "Location": "Astoria South & 18 Street",
        "lat": "40.7768",
        "lon": "-73.9259"
      }
    },
    {
      "type": "Feature",
      "geometry": {
        "type": "Point",
        "coordinates": [
          -73.8526,
          40.7014
        ]
      },
      "properties": {
        "Prop_ID": "Q015",
        "Name": "Forest Park",
        "Size": "0.25 miles",
        "RunningTracks_Type": "All Weather",
        "Location": "Myrtle Avenue & Woodhaven Boulevard",
        "lat": "40.7014",
        "lon": "-73.8526"
      }
    },
    {
      "type": "Feature",
      "geometry": {
        "type": "Point",
        "coordinates": [
          -73.9114,
          40.7476
        ]
      },
      "properties": {
        "Prop_ID": "Q031",
        "Name": "Windmuller Park",
        "Size": "0.10 miles",
        "RunningTracks_Type": "All Weather",
        "Location": "39 Drive & 52 Street",
        "lat": "40.7476",
        "lon": "-73.9114"
      }
    },
    {
      "type": "Feature",
      "geometry": {
        "type": "Point",
        "coordinates": [
          -73.8842,
          40.7199
        ]
      },
      "properties": {
        "Prop_ID": "Q102",
        "Name": "Juniper Valley Park",
        "Size": "0.25 miles",
        "RunningTracks_Type": "Cinder",
        "Location": "Juniper Boulevard & 71 Street",
        "lat": "40.7199",
        "lon": "-73.8842"
      }
    },
    {
      "type": "Feature",
      "geometry": {
        "type": "Point",
        "coordinates": [
          -73.7843,
          40.7027
        ]
      },
      "properties": {
        "Prop_ID": "Q121",
        "Name": "Det. Keith Williams Park",
        "Size": "0.25 miles",
        "RunningTracks_Type": "All Weather",
        "Location": "173 Street & 105 Avenue",
        "lat": "40.7027",
        "lon": "-73.7843"
      }
    },
    {
      "type": "Feature",
      "geometry": {
        "type": "Point",
        "coordinates": [
          -73.7733,
          40.6883
        ]
      },
      "properties": {
        "Prop_ID": "Q448",
        "Name": "Roy Wilkins Park",
        "Size": "0.25 miles",
        "RunningTracks_Type": "All Weather",
        "Location": "Baisley & Merrick boulevards",
        "lat": "40.6883",
        "lon": "-73.7733"
      }
    },
    {
      "type": "Feature",
      "geometry": {
        "type": "Point",
        "coordinates": [
          -74.1189,
          40.638
        ]
      },
      "properties": {
        "Prop_ID": "R109",
        "Name": "Corporal Thompson Park",
        "Size": "0.25 miles",
        "RunningTracks_Type": "Synthetic",
        "Location": "Broadway between Henderson Avenue and Richmond Terrace",
        "lat": "40.638",
        "lon": "-74.1189"
      }
    },
    {
      "type": "Feature",
      "geometry": {
        "type": "Point",
        "coordinates": [
          -73.7874,
          40.6691
        ]
      },
      "properties": {
        "Prop_ID": "Q005",
        "Name": "Baisley Park",
        "Size": "0.25 miles",
        "RunningTracks_Type": "All Weather",
        "Location": "North Conduit, Baisley Boulevard & 150 Street",
        "lat": "40.6691",
        "lon": "-73.7874"
      }
    },
    {
      "type": "Feature",
      "geometry": {
        "type": "Point",
        "coordinates": [
          -73.959,
          40.7653
        ]
      },
      "properties": {
        "Prop_ID": "M079",
        "Name": "St. Catherine&rsquo;s Park",
        "Size": "0.07 miles",
        "RunningTracks_Type": "Asphalt",
        "Location": "1 Avenue and East 67 to 68 streets",
        "lat": "40.7653",
        "lon": "-73.959"
      }
    },
    {
      "type": "Feature",
      "geometry": {
        "type": "Point",
        "coordinates": [
          -73.9752,
          40.737
        ]
      },
      "properties": {
        "Prop_ID": "M164",
        "Name": "Asser Levy Playground",
        "Size": "0.09 miles",
        "RunningTracks_Type": "Asphalt",
        "Location": "East 25th Street and Asser Levy Place",
        "lat": "40.737",
        "lon": "-73.9752"
      }
    }
  ]
}